{"url":"https://noti.st/philhawksworth.json","events":{"future":[{"title":"JAMstack Conf","address":"San Francisco, US","starts_on":"2020-10-06 09:00","country_code":"us","url":"https://jamstackconf.com"},{"title":"Smashing Conference","address":"Austin, US","starts_on":"2020-07-09 09:00","country_code":"us","url":"https://smashingconf.com/austin-2020/"},{"title":"JAMstack Conf","address":"London, UK","starts_on":"2020-05-27 09:00","country_code":"gb","url":"https://jamstackconf.com"},{"title":"Smashing Conference","address":"San Francisco, US","starts_on":"2020-04-21 09:00","country_code":"us","url":"https://smashingconf.com/sf-2020/"},{"title":"Holy JS","address":"St Petersburg, Russia","starts_on":"2020-04-10 09:00","country_code":"ru","url":"https://holyjs-piter.ru/en/"},{"title":"Generate","address":"London, UK","starts_on":"2020-04-02 09:00","country_code":"gb","url":"https://www.generateconf.com/"},{"title":"PerfMatters","slug":"perfmatters","starts_on":"2020-03-31 08:00:00","ends_on":"2020-04-01 18:00:00","timezone":"America/Los_Angeles","address":"Redwood City, CA, USA","latitude":"37.485215","longitude":"-122.236355","country_code":"US","blurb":{"html":null},"hashtag":"perfmatters","url":"https://perfmattersconf.com/"}],"past":[{"title":"JAMstack Webinar - Netlify and Matter Supply","slug":"jamstack-webinar-netlify-and-matter-supply","starts_on":"2020-01-22 08:00:00","ends_on":"2020-01-22 18:00:00","timezone":"GMT","address":"Worldwide","latitude":null,"longitude":null,"country_code":null,"url":null},{"title":"DotJS","slug":"dotjs","starts_on":"2019-12-05 08:00:00","ends_on":"2019-12-06 18:00:00","timezone":"Europe/Paris","address":"Paris, France","latitude":"48.856614","longitude":"2.352222","country_code":"FR","url":"https://www.dotjs.io/"},{"title":"JAMstack x Serverless","slug":"jamstack-x-serverless","starts_on":"2019-11-14 08:00:00","ends_on":"2019-11-14 18:00:00","timezone":"America/Toronto","address":"Toronto, ON, Canada","latitude":"43.653226","longitude":"-79.383184","country_code":"CA","url":"https://www.meetup.com/JAMstack-Toronto/events/265781752/"},{"title":"VueConfTO","slug":"vueconfto","starts_on":"2019-11-11 08:00:00","ends_on":"2019-11-12 18:00:00","timezone":"America/Toronto","address":"Toronto, ON, Canada","latitude":"43.653226","longitude":"-79.383184","country_code":"CA","url":"https://vuetoronto.com/"},{"title":"International JavaScript Conference","slug":"international-javascript-conference","starts_on":"2019-10-21 08:00:00","ends_on":"2019-10-25 18:00:00","timezone":"Europe/Berlin","address":"Munich, Germany","latitude":"48.135125","longitude":"11.581981","country_code":"DE","url":"https://javascript-conference.com/"},{"title":"JAMstack_conf San Francisco","slug":"jamstack-conf-san-francisco","starts_on":"2019-10-16 08:00:00","ends_on":"2019-10-18 18:00:00","timezone":"America/Los_Angeles","address":"San Francisco, CA, USA","latitude":"37.774930","longitude":"-122.419416","country_code":"US","url":"https://jamstackconf.com/sf/"},{"title":"Fronteers","slug":"fronteers","starts_on":"2019-10-03 08:00:00","ends_on":"2019-10-04 18:00:00","timezone":"Europe/Amsterdam","address":"Amsterdam, Netherlands","latitude":"52.370216","longitude":"4.895168","country_code":"NL","url":"https://fronteers.nl/congres/2019"},{"title":"JSCamp","slug":"jscamp","starts_on":"2019-09-24 08:00:00","ends_on":"2019-09-24 18:00:00","timezone":"Europe/Bucharest","address":"Bucharest, Romania","latitude":"44.426767","longitude":"26.102538","country_code":"RO","url":"http://jscamp.ro/"},{"title":"Front-End York","slug":"front-end-york","starts_on":"2019-09-04 19:00:00","ends_on":"2019-09-04 22:00:00","timezone":"Europe/London","address":"York, UK","latitude":"53.959965","longitude":"-1.087298","country_code":"GB","url":"https://twitter.com/frontendyork"},{"title":"Middlesbrough Front End","slug":"middlesbrough-front-end","starts_on":"2019-08-29 08:00:00","ends_on":"2019-08-29 18:00:00","timezone":"Europe/London","address":"Middlesbrough, UK","latitude":"54.574227","longitude":"-1.234956","country_code":"GB","url":"http://mbrofrontend.co.uk/"},{"title":"LeedsJS","slug":"leedsjs","starts_on":"2019-08-28 08:00:00","ends_on":"2019-08-28 18:00:00","timezone":"Europe/London","address":"Leeds, UK","latitude":"53.800755","longitude":"-1.549077","country_code":"GB","url":"https://leedsjs.com/"},{"title":"Nebraska JavaScript","slug":"nebraska-javascript","starts_on":"2019-08-09 08:00:00","ends_on":"2019-08-09 18:00:00","timezone":"America/Chicago","address":"Nebraska, USA","latitude":"41.492537","longitude":"-99.901813","country_code":"US","url":"https://nejsconf.com/"},{"title":"JAMstack_conf London","slug":"jamstack-conf-london","starts_on":"2019-07-09 08:00:00","ends_on":"2019-07-10 18:00:00","timezone":"Europe/London","address":"London, UK","latitude":"51.507351","longitude":"-0.127758","country_code":"GB","url":"https://jamstackconf.com/london/"},{"title":"JAMstack meetup","slug":"jamstack-meetup","starts_on":"2019-06-27 18:00:00","ends_on":"2019-06-27 21:00:00","timezone":"America/Toronto","address":"Toronto, ON, Canada","latitude":"43.653226","longitude":"-79.383184","country_code":"CA","url":"https://www.meetup.com/JAMstack-Toronto/events/262099906/"},{"title":"Smashing Conference","slug":"smashing-conference","starts_on":"2019-06-24 08:00:00","ends_on":"2019-06-27 18:00:00","timezone":"America/Toronto","address":"Toronto, ON, Canada","latitude":"43.653226","longitude":"-79.383184","country_code":"CA","url":"https://smashingconf.com/toronto-2019/"},{"title":"Pixel Pioneers","slug":"pixel-pioneers","starts_on":"2019-06-07 08:00:00","ends_on":"2019-06-07 18:00:00","timezone":"Europe/London","address":"Bristol, UK","latitude":"51.454513","longitude":"-2.587910","country_code":"GB","url":"https://pixelpioneers.co/events/bristol-2019"},{"title":"Frontend United","slug":"frontend-united","starts_on":"2019-05-16 08:00:00","ends_on":"2019-05-18 18:00:00","timezone":"Europe/Amsterdam","address":"Utrecht, Netherlands","latitude":"52.090737","longitude":"5.121420","country_code":"NL","url":"https://www.frontendunited.org/"},{"title":"International JavaScript Conference 2019","slug":"international-javascript-conference-2019","starts_on":"2019-05-13 08:00:00","ends_on":"2019-05-15 18:00:00","timezone":"Europe/London","address":"London, UK","latitude":"51.507351","longitude":"-0.127758","country_code":"GB","url":null},{"title":"All Day Hey","address":"Leeds, UK","starts_on":"2019-05-03T09:00:00Z","url":"https://alldayhey.com","country_code":"gb-eng"},{"title":"Smashing Conference","slug":"smashing-conference","starts_on":"2019-04-15 08:00:00","ends_on":"2019-04-18 18:00:00","timezone":"America/Los_Angeles","address":"San Francisco, CA, USA","latitude":"37.774930","longitude":"-122.419416","country_code":"US","url":"https://smashingconf.com/sf-2019/"},{"title":"Upfront Conf","slug":"upfront-conf","starts_on":"2019-03-22 08:00:00","ends_on":"2019-03-22 18:00:00","timezone":"Europe/London","address":"Manchester, UK","latitude":"53.480759","longitude":"-2.242631","country_code":"GB","url":"https://upfrontconf.com"},{"title":"Oxford Geek Night","slug":"oxford-geek-night","starts_on":"2019-02-13 19:30:00","ends_on":"2019-02-13 19:30:00","timezone":"Europe/London","address":"Oxford, UK","latitude":"51.752021","longitude":"-1.257726","country_code":"GB","url":"http://oxford.geeknights.net/"},{"title":"Fronteers Workshop: Netlify & Static Site Generators","slug":"fronteers-workshop-netlify-static-site-generators","starts_on":"2019-01-25 08:00:00","ends_on":"2019-01-25 18:00:00","timezone":"Europe/Amsterdam","address":"Utrecht, Netherlands","latitude":"52.090737","longitude":"5.121420","country_code":"NL","url":"https://fronteers.nl/workshops/workshop-netlify-static-site-generators"},{"title":"Front-End-York","slug":"front-end-york","starts_on":"2018-12-05 08:00:00","ends_on":"2018-12-05 18:00:00","timezone":"Europe/London","address":"York, UK","latitude":"53.959965","longitude":"-1.087298","country_code":"GB","url":"https://www.meetup.com/YorkDevelopers/events/256416019/"},{"title":"Webinar: I’ve got 99 problems but the server ain’t one","address":"Earth","starts_on":"2018-11-27T17:00:00Z","url":"https://www.contentful.com/resources/how-modern-developers-build-scalable-architectures-without-maintaining-servers/"},{"title":"ColdFront","slug":"coldfront","starts_on":"2018-11-12 08:00:00","ends_on":"2018-11-15 18:00:00","timezone":"Europe/Copenhagen","address":"Copenhagen, Denmark","latitude":"55.676097","longitude":"12.568337","country_code":"DK","url":"https://2018.coldfront.co"},{"title":"JAMstack Conf","slug":"jamstack-conf","starts_on":"2018-10-29 13:00:00","ends_on":"2018-10-30 18:00:00","timezone":"America/Los_Angeles","address":"San Francisco, CA, USA","latitude":"37.774930","longitude":"-122.419416","country_code":"US","url":"https://jamstackconf.com/"},{"title":"Smashing Conference","slug":"smashing-conference","starts_on":"2018-10-23 08:00:00","ends_on":"2018-10-24 18:00:00","timezone":"America/New_York","address":"New York, NY, USA","latitude":"40.712775","longitude":"-74.005973","country_code":"US","url":"https://smashingconf.com/ny-2018/"},{"title":"VueJS London (MC)","address":"London, UK","starts_on":"2018-09-21T09:00:00Z","url":"https://vuejs.london/","country_code":"gb-eng"},{"title":"Hey Stac","address":"Leeds, UK","starts_on":"2018-08-30T18:00:00Z","country_code":"gb-eng","url":"https://heyst.ac/people/phil-hawksworth"},{"title":"London Microservices Meetup","slug":"london-microservices-meetup","starts_on":"2018-08-09 08:00:00","ends_on":"2018-08-09 18:00:00","timezone":"Europe/London","address":"London, UK","latitude":"51.507351","longitude":"-0.127758","country_code":"GB","url":"https://www.meetup.com/London-Microservices-User-Group/events/tngzjlyxlbcb/"},{"title":"Webconf.asia","slug":"webconf-asia","starts_on":"2018-06-06 00:00:00","ends_on":"2018-06-09 07:59:00","timezone":"Asia/Hong_Kong","address":"Hong Kong","latitude":"22.396428","longitude":"114.109497","country_code":"HK","url":"https://www.webconf.asia/"},{"title":"Mcr FRED 60","slug":"mcr-fred-60","starts_on":"2018-05-30 18:30:00","ends_on":"2018-05-30 18:00:00","timezone":"Europe/London","address":"Manchester, UK","latitude":"53.480759","longitude":"-2.242631","country_code":"GB","url":"https://s10wen.com/blog/2018/05/04/mcrfred-60-phil-hawksworth/"},{"title":"McrFRED","slug":"mcrfred","starts_on":"2018-05-30 08:00:00","ends_on":"2018-05-30 18:00:00","timezone":"Europe/London","address":"Manchester, UK","latitude":"53.480759","longitude":"-2.242631","country_code":"GB","url":"https://www.meetup.com/McrFRED/events/250444591/"},{"title":"JAMstack Porto","slug":"jamstack-porto","starts_on":"2018-05-24 08:00:00","ends_on":"2018-05-24 18:00:00","timezone":"Europe/Lisbon","address":"Porto, Portugal","latitude":"41.157944","longitude":"-8.629105","country_code":"PT","url":"https://www.meetup.com/en-AU/JAMstack-Porto/events/plkdqpyxhbgc/"},{"title":"Certified Fresh Events - Modern Web Development with the JAMStack","slug":"certified-fresh-events-modern-web-development-with-the-jamstack","starts_on":"2018-05-23 08:00:00","ends_on":"2018-05-23 18:00:00","timezone":"GMT","address":"Worldwide","latitude":null,"longitude":null,"country_code":null,"url":"https://certifiedfreshevents.com/events/jamstack/"},{"title":"WeAreDevelopers World Congress","slug":"wearedevelopers-world-congress","starts_on":"2018-05-16 00:00:00","ends_on":"2018-05-19 01:59:00","timezone":"Europe/Vienna","address":"Vienna, Austria","latitude":"48.208174","longitude":"16.373819","country_code":"AT","url":"https://www.wearedevelopers.com/"},{"title":"All Day Hey (MC)","address":"Leeds, UK","starts_on":"2018-04-30T09:00:00Z","url":"http://leedsinternationalfestival.com/event/all-day-hey","country_code":"gb-eng"},{"title":"JS Heroes","address":"Cluj-Napoca, Romania","starts_on":"2018-04-19T09:00:00Z","url":"https://jsheroes.io/","country_code":"ro"},{"title":"Render Conf","slug":"render-conf","starts_on":"2018-03-23 00:00:00","ends_on":"2018-03-23 23:59:00","timezone":"Europe/London","address":"Oxford, UK","latitude":"51.752021","longitude":"-1.257726","country_code":"GB","url":"https://2018.render-conf.com/"},{"title":"JAMstack London Meetup (MC)","address":"London, UK","starts_on":"2018-03-19T18:30:00Z","url":"https://www.meetup.com/JAMstack-London/events/tbspgpyxfbhb/","country_code":"gb-eng"},{"title":"JAMStack Toulouse Meetup","address":"Toulouse, France","starts_on":"2018-03-16T18:00:00Z","url":"https://www.meetup.com/en-AU/JAMstack-Toulouse/events/246940796/","country_code":"fr"},{"title":"Front End London","address":"London, UK","starts_on":"2018-02-22T18:00:00Z","url":"http://www.frontendlondon.co.uk/","country_code":"gb-eng"},{"title":"Smashing Conference","address":"London, UK","starts_on":"2018-02-07T09:00:00Z","url":"https://smashingconf.com/london-2018","country_code":"gb-eng"},{"title":"JAMstack London Meetup","address":"London, UK","starts_on":"2018-02-05T18:30:00Z","url":"https://www.meetup.com/JAMstack-London/events/247153958/","country_code":"gb-eng"},{"title":"ScriptConf","address":"Linz, Austria","starts_on":"2018-01-19T09:00:00Z","url":"https://scriptconf.org/","country_code":"at"},{"title":"Smashing Conference (MC)","address":"Freiburg, Germany","starts_on":"2017-09-11T09:00:00Z","url":"https://smashingconf.com/freiburg-2017/","country_code":"de"},{"title":"Coldfront (MC)","address":"Copenhagen, Denmark","starts_on":"2017-09-07T09:00:00Z","url":"https://2017.coldfront.co","country_code":"dk"},{"title":"Front Trends (Talk and MC)","address":"Warsaw, Poland","starts_on":"2017-05-24T09:00:00Z","url":"https://2017.front-trends.com","country_code":"pl"},{"title":"Front-Trends 2017","slug":"front-trends-2017","starts_on":"2017-05-24 02:00:00","ends_on":"2017-05-26 01:59:00","timezone":"Europe/Warsaw","address":"Warsaw, Poland","latitude":"52.229676","longitude":"21.012229","country_code":"PL","url":"https://2017.front-trends.com/"},{"title":"Beyond Tellerrand","slug":"beyond-tellerrand","starts_on":"2017-05-15 09:00:00","ends_on":"2017-05-17 20:00:00","timezone":"Europe/Berlin","address":"Düsseldorf, Germany","latitude":"51.227741","longitude":"6.773456","country_code":"DE","url":"https://beyondtellerrand.com/events/duesseldorf-2017/speakers"},{"title":"Contentful meetup","address":"London, UK","starts_on":"2017-05-10T19:00:00Z","url":"https://www.meetup.com/meetup-group-qCrvByhz/events/239172315/","country_code":"gb-eng"},{"title":"All Day Hey (MC)","address":"Leeds, UK","starts_on":"2017-04-24T09:00:00Z","url":"https://heyst.ac/all-day","country_code":"gb-eng"},{"title":"JAMStack meetup","address":"San Francisco, USA","starts_on":"2016-11-09 19:00:00Z","url":"http://www.meetup.com/jamstack-sf/","country_code":"us"},{"title":"Fronteers Conference","slug":"fronteers-conference","starts_on":"2016-10-06 02:00:00","ends_on":"2016-10-07 01:59:00","timezone":"Europe/Amsterdam","address":"Amsterdam, Netherlands","latitude":"52.370216","longitude":"4.895168","country_code":"NL","url":"https://fronteers.nl/congres/2012"},{"title":"Internet and Mobile World","address":"Bucharest, Romania","starts_on":"2016-10-05T09:00:00Z","url":"http://imworld.ro/","country_code":"ro"},{"title":"Dutch Digital Day","address":"Amsterdam, Netherlands","starts_on":"2016-09-15T09:00:00Z","url":"http://dutchdigitalday.com/","country_code":"nl"},{"title":"Smashing Conference","address":"New York, USA","starts_on":"2016-06-14T09:00:00Z","url":"http://lanyrd.com/2016/smashingconf-new-york","country_code":"us"},{"title":"Front-Trends 2016","slug":"front-trends-2016","starts_on":"2016-05-18 02:00:00","ends_on":"2016-05-19 01:59:00","timezone":"Europe/Warsaw","address":"Warsaw, Poland","latitude":"52.229676","longitude":"21.012229","country_code":"PL","url":"https://2016.front-trends.com/"},{"title":"Fronteers Spring (MC)","address":"Amsterdam, Netherlands","starts_on":"2016-04-01T09:00:00Z","url":"https://fronteers.nl/congres/2016-spring","country_code":"nl"},{"title":"Enhance Conference","address":"London, England","starts_on":"2016-03-04T09:00:00Z","url":"http://enhanceconf.com","country_code":"gb-eng"},{"title":"Fronteers","address":"Amsterdam, Netherlands","starts_on":"2015-10-08T09:00:00Z","url":"https://fronteers.nl/congres/2015","country_code":"nl"},{"title":"Generate","address":"London, England","starts_on":"2015-09-17T09:30:00Z","url":"http://www.generateconf.com/london-2015","country_code":"gb-eng"},{"title":"Milton Keynes Geek Night","address":"Milton Keynes, England","starts_on":"2015-09-10 20:00:00Z","url":"http://mkgeeknight.co.uk","country_code":"gb-eng"},{"title":"Dot York","address":"York, England","starts_on":"2015-04-09T09:00:00Z","url":"http://dotyork.com","country_code":"gb-eng"},{"title":"Awwwards Conference","address":"Barcelona, Spain","starts_on":"2015-02-24T09:00:00Z","url":"http://conference.awwwards.com/","country_code":"es"},{"title":"Front End North","address":"Manchester, England","starts_on":"2014-11-15T09:00:00Z","url":"http://makedo.in/frontendnorth/","country_code":"gb-eng"},{"title":"The Web Is..","address":"Cardiff, Wales","starts_on":"2014-10-30T09:00:00Z","url":"http://theweb.is","country_code":"gb-wls"},{"title":"Smashing Conference","address":"Freiburg, Germany","starts_on":"2014-09-14T09:00:00Z","url":"http://smashingconf.com/freiburg-2014/","country_code":"de"},{"title":"ColdFront Conference","address":"Copenhagen, Denmark","starts_on":"2014-09-04T09:00:00Z","url":"http://coldfrontconf.com/","country_code":"dk"},{"title":"ColdFront Conference","slug":"coldfront-conference","starts_on":"2014-09-04 02:00:00","ends_on":"2014-09-04 02:00:00","timezone":"Europe/Copenhagen","address":"Copenhagen, Denmark","latitude":"55.676097","longitude":"12.568337","country_code":"DK","url":"https://2014.coldfront.co/#speakers"},{"title":"Wuthering Bytes","address":"Hebden Bridge, England","starts_on":"2014-08-15T09:00:00Z","url":"http://wutheringbytes.com/","country_code":"gb-eng"},{"title":"JSCamp","address":"Bucharest, Romania","starts_on":"2014-06-03T09:00:00Z","url":"http://www.jscamp.ro","country_code":"ro"},{"title":"DevConFu","address":"Riga, Latvia","starts_on":"2014-05-29 13:00:00Z","url":"http://devconfu.eu","country_code":"lv"},{"title":"LondonJS","address":"London, England","starts_on":"2014-02-13T09:00:00Z","url":"http://www.londonjsconf.com","country_code":"gb-eng"},{"title":"Untangle The Web","address":"London, England","starts_on":"2013-12-13 19:00:00Z","url":"http://www.meetup.com/Untangling-the-Web-London","country_code":"gb-eng"},{"title":"Future of Web Apps","address":"London, England","starts_on":"2013-10-24T09:00:00Z","url":"http://futureofwebapps.com/london-2013/","country_code":"gb-eng"},{"title":"Breaking Development Conference","address":"Nashville, USA","starts_on":"2013-10-21T09:00:00Z","url":"http://bdconf.com/2013/nashville/","country_code":"us"},{"title":"Internet and Mobile World","address":"Bucharest, Romania","starts_on":"2013-10-09T09:00:00Z","url":"http://www.imworld.ro/","country_code":"ro"},{"title":"Speak The Web","address":"Leeds, England","starts_on":"2013-07-23 20:00:00Z","url":"http://speaktheweb.org","country_code":"gb-eng"},{"title":"London Web Standards","address":"London, England","starts_on":"2013-07-22 20:00:00Z","url":"http://londonwebstandards.org/2013/07/london-web-standard-july-2013-how-to-present-lightning-talks-lwslightning","country_code":"gb-eng"},{"title":"Gotham JS","address":"New York, USA","starts_on":"2013-07-12T08:00:00Z","url":"http://www.gothamjs.com","country_code":"us"},{"title":"Content Strategy Lightning Talks","address":"London, England","starts_on":"2013-06-17 18:00:00Z","url":"https://togetherlondon.com/events/meetup","country_code":"gb-eng"},{"title":"jsDay","address":"Verona, Italy","starts_on":"2013-05-15T09:00:00Z","url":"http://2013.jsday.it","country_code":"it"},{"title":"Texas JavaScript","address":"Austin, USA","starts_on":"2013-04-15T09:00:00Z","url":"http://2013.texasjavascript.com","country_code":"us"},{"title":"HTML5 Developer Conference","address":"San Francisco, USA","starts_on":"2013-04-01T09:00:00Z","url":"http://2013.html5devconf.com","country_code":"us"},{"title":"Fronteers","address":"Amsterdam, Netherlands","starts_on":"2012-10-05T09:00:00Z","url":"http://fronteers.nl/congres/2012","country_code":"nl"},{"title":"HTML5 DevUp","address":"Barcelona, Spain","starts_on":"2012-05-27T09:00:00Z","url":"http://devup.ideateca.com/html5/thankyou.php","country_code":"es"},{"title":"Toster JavaScript","address":"Moscow, Russia","starts_on":"2012-05-25T09:00:00Z","url":"http://toster.ru/","country_code":"ru"},{"title":"SXSW Interactive","address":"Austin, USA","starts_on":"2012-03-12T09:00:00Z","url":"http://schedule.sxsw.com/2012/events/event_IAP11002","country_code":"us"},{"title":"FullFrontal","address":"Brighton, England","starts_on":"2011-11-11 11:00:00Z","url":"http://2011.full-frontal.org","country_code":"gb-eng"},{"title":"Async","address":"Brighton, England","starts_on":"2011-11-10 19:00:00Z","url":"http://asyncjs.com/intro-nodejs/","country_code":"gb-eng"},{"title":"Async - Getting started with Node","address":"Brighton, England","starts_on":"2011-05-26 19:15:00Z","url":"http://asyncjs.com/intro-nodejs/","country_code":"gb-eng"},{"title":"UX People","address":"London, England","starts_on":"2010-03-22 10:00:00Z","url":"http://uxpeople.co.uk/2010/","country_code":"gb-eng"}]}}